City_ID,City,Lat,Lng,Max Temp,Humidity,Cloudiness,Wind Speed,Country,Date
0,aswan,24.0934,32.907,40.02,10,4,5.22,EG,1718821743
1,colonia,50.9333,6.95,20.87,62,20,2.06,DE,1718821743
2,wodonga,-36.1167,146.8833,0.71,95,3,2.02,AU,1718821743
3,stanley,54.868,-1.6985,18.07,60,20,5.66,GB,1718821548
4,longyearbyen,78.2186,15.6401,8.91,40,75,9.26,SJ,1718821744
5,sinan,34.8262,126.1086,21.06,77,100,4.97,KR,1718821744
6,port hedland,-20.3167,118.5667,21.03,60,22,3.09,AU,1718821745
7,punta arenas,-53.15,-70.9167,-0.94,74,75,2.06,CL,1718821674
8,laredo,27.5064,-99.5075,27.16,83,100,5.66,US,1718821745
9,great falls,47.5002,-111.3008,16.66,47,20,2.57,US,1718821745
10,vila velha,-20.3297,-40.2925,27.97,65,40,6.69,BR,1718821484
11,port elizabeth,-33.918,25.5701,13.51,79,0,7.2,ZA,1718821746
12,port saint john's,-31.6229,29.5448,18.36,69,6,4.7,ZA,1718821746
13,albany,42.6001,-73.9662,35.35,63,100,0.45,US,1718821612
14,iqaluit,63.7506,-68.5145,1.85,93,100,3.6,CA,1718821746
15,scottburgh,-30.2867,30.7532,17.78,78,1,3.32,ZA,1718821747
16,pangai,-19.8,-174.35,24.06,94,20,1.54,TO,1718821747
17,illizi,26.4833,8.4667,39.89,9,0,5.15,DZ,1718821747
18,port-aux-francais,-49.35,70.2167,3.68,90,77,10.2,TF,1718821747
19,hawaiian paradise park,19.5933,-154.9731,23.91,87,100,2.57,US,1718821747
20,edinburgh of the seven seas,-37.0676,-12.3116,13.87,92,84,6.1,SH,1718821748
21,tongliao,43.6125,122.2653,22.8,49,84,7.07,CN,1718821748
22,arraial do cabo,-22.9661,-42.0278,30.98,61,0,4.63,BR,1718821494
23,ellsworth,44.5434,-68.4195,36.74,70,0,6.17,US,1718821653
24,puerto ayora,-0.7393,-90.3518,27.98,99,99,3.13,EC,1718821749
25,atar,20.5169,-13.0499,41.05,13,35,4.89,MR,1718821749
26,morondava,-20.2833,44.2833,23.4,78,0,4.97,MG,1718821749
27,west island,-12.1568,96.8225,26.99,89,75,8.23,CC,1718821749
28,grytviken,-54.2811,-36.5092,-6.37,62,40,1.23,GS,1718821750
29,hamilton,39.1834,-84.5333,33.0,65,0,2.06,US,1718821512
30,ilulissat,69.2167,-51.1,6.01,75,75,2.57,GL,1718821750
31,bilibino,68.0546,166.4372,13.48,52,56,2.46,RU,1718821750
32,mount gambier,-37.8333,140.7667,6.94,74,74,2.52,AU,1718821751
33,polyarnyy,69.1989,33.4478,8.04,95,100,9.08,RU,1718821751
34,strathmore,51.0501,-113.3852,15.66,54,100,2.57,CA,1718821675
35,ust-nera,64.5667,143.2,13.98,73,22,1.31,RU,1718821751
36,hadibu,12.65,54.0333,28.61,77,57,6.22,YE,1718821751
37,rio grande,-32.035,-52.0986,21.06,92,100,2.92,BR,1718821486
38,papatowai,-46.5619,169.4708,7.45,81,99,6.63,NZ,1718821752
39,san mariano,7.5,126.0,22.63,96,100,0.83,PH,1718821752
40,georgetown,5.4112,100.3354,27.75,89,40,1.54,MY,1718821471
41,codrington,-38.2667,141.9667,8.2,74,99,2.89,AU,1718821753
42,petropavlovsk-kamchatsky,53.0452,158.6483,5.33,93,100,1.0,RU,1718821753
43,badger,64.8,-147.5333,18.33,51,75,3.6,US,1718821753
44,kuruman,-27.4524,23.4325,10.0,30,0,1.67,ZA,1718821753
45,monywa,22.1167,95.1333,29.24,70,100,6.45,MM,1718821754
46,lambarene,-0.7001,10.2406,26.44,80,94,1.06,GA,1718821754
47,tazovsky,67.4667,78.7,-0.28,97,98,7.01,RU,1718821754
48,alice springs,-23.7,133.8833,13.75,94,100,2.57,AU,1718821754
49,puerto natales,-51.7236,-72.4875,-3.75,80,20,2.06,CL,1718821755
50,usogorsk,63.4106,48.6872,19.02,77,100,2.38,RU,1718821755
51,thompson,55.7435,-97.8558,12.09,66,75,6.69,CA,1718821697
52,puerto baquerizo moreno,-0.9,-89.6,25.55,73,75,8.23,EC,1718821755
53,bethel,41.3712,-73.414,35.12,61,0,3.09,US,1718821691
54,flying fish cove,-10.4217,105.6791,25.82,73,100,6.69,CX,1718821756
55,ataq,14.5377,46.8319,28.54,41,76,3.6,YE,1718821756
56,gizo,-8.103,156.8419,27.38,83,57,6.84,SB,1718821756
57,ancud,-41.8697,-73.8203,7.74,63,80,2.37,CL,1718821515
58,uturoa,-16.7333,-151.4333,25.12,62,15,4.89,PF,1718821757
59,baihe,22.15,107.2333,25.31,90,98,1.31,CN,1718821757
60,darnah,32.767,22.6367,25.06,75,0,9.1,LY,1718821757
61,afaahiti,-17.75,-149.2833,23.93,65,18,5.38,PF,1718821757
62,nikolayevsk-on-amure,53.1406,140.73,5.54,98,100,0.88,RU,1718821758
63,visp,46.2937,7.8815,23.21,93,67,1.6,CH,1718821758
64,kingston,17.997,-76.7936,31.76,66,20,7.72,JM,1718821734
65,waitangi,-43.9535,-176.5597,7.68,66,87,7.95,NZ,1718821759
66,adamstown,-25.066,-130.1015,22.08,78,73,9.08,PN,1718821759
67,tura,25.5198,90.2201,23.32,98,100,2.45,IN,1718821759
68,severodvinsk,64.5635,39.8302,18.06,92,68,1.09,RU,1718821759
69,aripuana,-9.1667,-60.6333,36.46,26,3,1.53,BR,1718821760
70,vila franca do campo,37.7167,-25.4333,21.23,99,89,0.55,PT,1718821760
71,margaret river,-33.95,115.0667,9.37,81,0,2.72,AU,1718821760
72,cabo san lucas,22.8909,-109.9124,34.78,27,0,5.14,MX,1718821724
73,ponta delgada,37.7333,-25.6667,21.4,56,75,3.6,PT,1718821760
74,lebu,-37.6167,-73.65,10.46,82,100,4.85,CL,1718821761
75,ribeira grande,38.5167,-28.7,21.22,64,40,3.13,PT,1718821761
76,tromso,69.6496,18.957,11.01,87,75,12.35,NO,1718821596
77,tiksi,71.6872,128.8694,1.52,86,79,1.93,RU,1718821761
78,college,64.8569,-147.8028,18.38,53,75,3.6,US,1718821762
79,chos malal,-37.3781,-70.2709,7.86,50,27,2.36,AR,1718821762
80,zuni pueblo,35.0725,-108.8506,28.35,15,0,5.85,US,1718821762
81,whitehorse,60.7161,-135.0538,20.05,41,20,2.06,CA,1718821763
82,krasnyy chikoy,50.3643,108.7512,13.45,95,43,1.79,RU,1718821763
83,wailua homesteads,22.0669,-159.378,27.24,85,100,9.77,US,1718821763
84,vorgashor,67.5833,63.95,0.53,86,6,2.61,RU,1718821763
85,itoman,26.1247,127.6694,28.21,96,75,5.66,JP,1718821764
86,bredasdorp,-34.5322,20.0403,11.28,77,15,0.82,ZA,1718821764
87,sovetskaya gavan',48.9723,140.2878,9.49,99,100,1.77,RU,1718821764
88,portland,45.5234,-122.6762,24.7,56,20,3.6,US,1718821016
89,blackmans bay,-43.0167,147.3167,7.63,92,95,0.45,AU,1718821765
90,hermanus,-34.4187,19.2345,13.73,74,16,1.36,ZA,1718821765
91,yellowknife,62.456,-114.3525,16.9,47,75,6.17,CA,1718821567
92,ushuaia,-54.8,-68.3,-0.19,74,75,6.17,AR,1718821577
93,nar'yan-mar,67.6713,53.087,9.97,53,94,6.07,RU,1718821766
94,sorong,-0.8833,131.25,25.16,91,100,3.25,ID,1718821766
95,dudinka,69.4058,86.1778,2.17,64,87,3.59,RU,1718821766
96,buckeye,33.3703,-112.5838,36.96,19,0,2.39,US,1718821766
97,iskateley,67.6803,53.1512,9.79,54,94,6.12,RU,1718821766
98,dawei,14.0833,98.2,25.37,92,70,0.82,MM,1718821767
99,bukama,-9.2,25.85,23.08,36,35,0.67,CD,1718821767
100,shache,38.4167,77.2406,26.29,27,95,3.03,CN,1718821767
101,keflavik,64.0049,-22.5624,8.95,93,75,3.09,IS,1718821767
102,minas de marcona,-15.2119,-75.1103,17.67,55,20,6.48,PE,1718821768
103,zhangye,38.9342,100.4517,18.59,55,100,4.85,CN,1718821768
104,maumere,-8.6199,122.2111,24.02,76,52,2.57,ID,1718821768
105,la rinconada,37.4873,-5.9826,22.25,58,40,6.69,ES,1718821768
106,olonkinbyen,70.9221,-8.7187,0.95,99,100,5.17,SJ,1718821769
107,constantia,44.1833,28.65,23.38,66,0,4.07,RO,1718821599
108,isafjordur,66.0755,-23.124,4.32,68,100,3.53,IS,1718821769
109,port alfred,-33.5906,26.891,15.01,80,54,6.55,ZA,1718821770
110,avarua,-21.2078,-159.775,19.03,88,65,1.54,CK,1718821770
111,carnarvon,-24.8667,113.6333,16.72,55,0,9.4,AU,1718821770
112,lihue,21.9789,-159.3672,27.58,85,100,9.77,US,1718821770
113,ayorou,14.7308,0.9174,33.66,36,80,11.6,NE,1718821771
114,babolsar,36.7025,52.6576,26.18,72,52,2.45,IR,1718821771
115,st. john's,47.5649,-52.7093,23.49,67,75,3.6,CA,1718821513
116,zanjan,36.6736,48.4787,19.16,75,8,3.84,IR,1718821771
117,talnakh,69.4865,88.3972,2.92,53,100,1.58,RU,1718821772
118,tsiombe,-25.3,45.4833,20.09,79,0,1.25,MG,1718821772
119,calp,38.6447,0.0445,29.12,76,97,3.25,ES,1718821772
120,hell-ville,-13.4,48.2667,26.38,72,2,1.45,MG,1718821772
121,hammerfest,70.6634,23.6821,13.25,82,75,9.26,NO,1718821772
122,port lincoln,-34.7333,135.8667,12.22,74,69,9.79,AU,1718821773
123,cill airne,52.05,-9.5167,14.03,67,0,4.12,IE,1718821773
124,kamien pomorski,53.9685,14.7726,17.2,72,78,7.02,PL,1718821773
125,sidi amrane,33.4989,6.008,42.24,10,20,7.09,DZ,1718821774
126,zarqa,32.0728,36.088,31.95,42,0,1.54,JO,1718821774
127,kulhudhuffushi,6.6221,73.07,28.71,80,100,6.57,MV,1718821774
128,boyolangu,-8.1181,111.8935,23.38,88,100,1.2,ID,1718821774
129,havre,49.5833,0.3333,18.52,77,0,7.2,FR,1718821776
130,puerto leguizamo,-0.1934,-74.7819,26.5,97,82,1.59,CO,1718821776
131,george town,5.4112,100.3354,27.75,89,40,1.54,MY,1718821776
132,yuzhno-kurilsk,44.0306,145.8556,9.55,89,25,0.57,RU,1718821776
133,at taj,24.2049,23.2857,33.95,14,0,4.57,LY,1718821776
134,tipton,52.5296,-2.0677,18.77,60,100,0.89,GB,1718821777
135,bamboo flat,11.7,92.7167,26.05,94,40,2.57,IN,1718821777
136,ometepec,16.6833,-98.4167,30.75,52,95,2.71,MX,1718821777
137,labrador city,52.9463,-66.9114,32.32,37,75,10.28,CA,1718821509
138,mandaguari,-23.5475,-51.6708,27.6,25,2,3.41,BR,1718821536
139,komlo,46.1928,18.2649,28.69,63,9,2.7,HU,1718821566
140,kodiak,57.79,-152.4072,7.73,100,100,4.63,US,1718821778
141,lauro de freitas,-12.8944,-38.3272,28.01,65,20,6.17,BR,1718821779
142,la'ie,21.6477,-157.9253,25.98,76,52,3.58,US,1718821779
143,kupang,-10.1667,123.5833,23.32,94,3,2.06,ID,1718821779
144,qaqortoq,60.7167,-46.0333,4.81,85,100,4.39,GL,1718821750
145,invercargill,-46.4,168.35,3.9,83,100,1.34,NZ,1718821780
146,derbent,42.0678,48.2899,25.65,73,95,1.29,RU,1718821780
147,allanridge,-27.7543,26.6438,10.95,25,0,2.78,ZA,1718821780
148,kapuskasing,49.4169,-82.4331,28.05,61,75,7.2,CA,1718821780
149,midvagur,62.0511,-7.1939,10.46,87,100,10.8,FO,1718821781
150,taltal,-25.4,-70.4833,17.87,65,0,2.85,CL,1718821781
151,penzance,50.1186,-5.5371,17.38,84,97,0.84,GB,1718821781
152,kerikeri,-35.2268,173.9474,12.73,95,100,2.24,NZ,1718821781
153,carmelo,-33.9892,-58.2856,16.95,75,85,4.04,UY,1718821714
154,east grand forks,47.93,-97.0245,19.13,50,20,2.57,US,1718821782
155,jamestown,42.097,-79.2353,30.77,74,0,3.6,US,1718821737
156,sungailiat,-1.85,106.1333,26.94,83,89,3.9,ID,1718821782
157,smithers,54.7804,-127.1743,17.18,63,20,1.54,CA,1718821782
158,mainit,9.535,125.5231,23.69,86,92,1.91,PH,1718821783
159,miyaly,48.8844,53.7836,26.16,57,51,4.08,KZ,1718821783
160,chonchi,-42.6128,-73.8092,6.73,79,91,1.75,CL,1718821783
161,wakkanai,45.4094,141.6739,13.12,92,72,6.63,JP,1718821783
162,dazkiri,37.9186,29.8606,26.9,82,62,5.6,TR,1718821783
163,tarfaya,27.9358,-12.9218,20.03,77,0,9.67,MA,1718821784
164,tulsipur,28.131,82.2973,30.24,47,42,3.25,NP,1718821784
165,camayenne,9.535,-13.6878,30.05,74,20,5.14,GN,1718821784
166,fale old settlement,-9.3852,-171.2468,28.81,77,42,7.23,TK,1718821785
167,bathsheba,13.2167,-59.5167,31.34,70,20,8.75,BB,1718821785
168,port mathurin,-19.6833,63.4167,23.96,65,20,9.9,MU,1718821785
169,tindouf,27.6711,-8.1474,35.25,13,0,9.26,DZ,1718821786
170,santo antonio do ica,-3.1022,-67.9397,33.89,45,66,1.8,BR,1718821786
171,sisimiut,66.9395,-53.6735,5.4,81,94,3.37,GL,1718821786
172,fort mcmurray,56.7268,-111.381,19.73,39,75,7.2,CA,1718821786
173,bac lieu,9.285,105.7244,28.56,76,100,4.0,VN,1718821787
174,al mayadin,35.0209,40.4535,40.25,9,0,3.26,SY,1718821787
175,san antonio de pale,-1.4014,5.6325,24.53,90,100,5.3,GQ,1718821787
176,lukolela,-1.0605,17.1821,25.93,58,58,0.91,CD,1718821788
177,buka,40.8108,69.1986,27.43,30,1,1.71,UZ,1718821788
178,fort bragg,35.139,-79.006,31.82,45,75,4.12,US,1718821610
179,remire-montjoly,4.9167,-52.2667,31.02,66,75,4.12,GF,1718821788
180,achacachi,-16.05,-68.6833,10.03,34,86,3.75,BO,1718821789
181,xichang,27.8964,102.2634,19.94,94,91,0.26,CN,1718821789
182,ar rutbah,33.0381,40.2848,38.33,9,50,1.05,IQ,1718821789
183,mukalla,14.5425,49.1242,31.05,67,27,4.65,YE,1718821567
184,happy valley-goose bay,53.3168,-60.3315,27.17,47,40,4.63,CA,1718821790
185,la passe,45.5549,-0.8967,23.13,80,37,3.55,FR,1718821790
186,klyuchi,52.2667,79.1667,16.33,49,88,2.23,RU,1718821790
187,oltinko'l,40.8011,72.1634,30.26,23,0,1.45,UZ,1718821790
188,pacific grove,36.6177,-121.9166,21.01,79,0,3.6,US,1718821791
189,taoudenni,22.6783,-3.9836,46.13,7,52,3.23,ML,1718821791
190,shangrao,28.4532,117.9686,23.89,97,100,0.67,CN,1718821791
191,turan,16.0678,108.2208,25.99,89,20,2.06,VN,1718821791
192,yasuj,30.6682,51.588,26.75,24,40,5.14,IR,1718821792
193,rongelap,11.1635,166.8941,28.03,80,7,7.41,MH,1718821792
194,paita,-5.0892,-81.1144,22.32,68,41,5.93,PE,1718821792
195,bucerias,20.75,-105.3333,30.55,78,100,3.23,MX,1718821792
196,acarau,-2.8856,-40.12,28.94,71,44,6.2,BR,1718821793
197,sanctuary point,-35.1114,150.629,6.85,76,1,2.67,AU,1718821793
198,vadso,70.0744,29.7487,8.49,93,75,12.86,NO,1718821793
199,qamdo,31.1667,97.2333,9.31,66,99,2.11,CN,1718821793
200,igarka,67.4667,86.5833,0.48,72,86,2.91,RU,1718821794
201,utrik,11.2278,169.8474,27.87,80,14,8.05,MH,1718821794
202,nago,26.5881,127.9761,28.24,94,48,3.2,JP,1718821794
203,cidade velha,14.9167,-23.6167,27.26,74,75,4.63,CV,1718821794
204,selfoss,63.9331,-20.9971,9.47,83,100,3.46,IS,1718821794
205,aasiaat,68.7098,-52.8699,2.88,90,74,2.92,GL,1718821795
206,poland,44.0606,-70.3937,36.44,60,43,2.24,US,1718821795
207,limulunga,-15.0969,23.1376,16.68,32,0,0.71,ZM,1718821795
208,segovia,41.1667,-4.0,21.91,45,90,4.62,ES,1718821681
209,komadi,47.0,21.5,30.31,49,69,3.58,HU,1718821796
210,konarka,19.9,86.1167,30.22,85,100,5.67,IN,1718821796
211,ribeira brava,32.65,-17.0667,22.78,67,41,0.17,PT,1718821796
212,tortoli,39.9256,9.6572,35.54,83,20,4.12,IT,1718821797
213,velingara,13.15,-14.1167,34.27,45,94,1.64,SN,1718821797
214,saipan,15.1355,145.701,27.39,83,40,5.14,MP,1718821797
215,hasaki,35.7333,140.8333,17.38,85,1,2.66,JP,1718821797
216,lompoc,34.6391,-120.4579,25.38,74,0,4.63,US,1718821797
217,kavaratti,10.5669,72.642,28.55,83,100,6.15,IN,1718821798
218,saldanha,-33.0117,17.9442,12.03,75,22,3.86,ZA,1718821798
219,bowen,-20.0167,148.2333,14.77,65,0,2.66,AU,1718821798
220,naze,28.3667,129.4833,23.51,92,100,3.44,JP,1718821798
221,northam,51.0333,-4.2167,16.97,78,99,3.09,GB,1718821799
222,debark',13.1561,37.8981,12.73,73,58,0.42,ET,1718821799
223,san ramon,37.7799,-121.978,26.01,54,0,4.63,US,1718821799
224,qalat,32.1058,66.9083,26.46,13,1,3.33,AF,1718821799
225,murghob,38.1702,73.9667,7.49,49,100,1.56,TJ,1718821800
226,bikenibeu village,1.3673,173.1241,28.48,76,96,5.28,KI,1718821800
227,arteche,12.2645,125.4048,25.45,88,48,1.94,PH,1718821800
228,shingu,33.7333,135.9833,20.31,84,100,1.73,JP,1718821800
229,ixtapa,20.7,-105.2,30.13,78,62,1.79,MX,1718821801
230,altai,46.3722,96.2583,10.61,82,57,1.88,MN,1718821801
231,noyabrsk,63.1994,75.4507,1.8,75,8,3.35,RU,1718821801
232,mcdonough,40.4667,-90.6668,31.95,51,40,2.57,US,1718821796
233,haiku-pauwela,20.9219,-156.3051,26.23,73,20,8.75,US,1718821802
234,enewetak,11.3474,162.3373,28.19,76,5,7.85,MH,1718821803
235,mejit,10.2753,170.8646,27.89,79,100,8.08,MH,1718821804
236,anadyr,64.75,177.4833,4.28,80,75,1.0,RU,1718821805
237,sao joao da barra,-21.6403,-41.0511,30.05,78,0,6.22,BR,1718821805
238,pisco,-13.7,-76.2167,19.03,72,20,4.12,PE,1718821806
239,new norfolk,-42.7826,147.0587,8.29,88,100,0.69,AU,1718821806
240,banda aceh,5.5577,95.3222,27.28,79,88,5.63,ID,1718821806
241,ta`u,-14.2336,-169.5144,27.27,81,46,7.98,AS,1718821807
242,gebeit,21.0667,36.3167,34.08,10,0,2.34,SD,1718821807
243,sitka,57.0531,-135.33,11.94,82,100,2.06,US,1718821807
244,susanville,40.4163,-120.653,22.68,18,6,2.24,US,1718821807
245,khovd,48.0056,91.6419,8.37,79,100,2.37,MN,1718821807
246,tamanrasset,22.785,5.5228,36.95,9,40,1.54,DZ,1718821808
247,barvinkove,48.9097,37.0205,23.91,54,49,1.27,UA,1718821515
248,chibougamau,49.9168,-74.3659,30.79,55,75,9.77,CA,1718821808
249,oxelosund,58.6706,17.1015,17.21,63,20,5.14,SE,1718821808
250,katsuura,35.1333,140.3,20.62,91,98,2.87,JP,1718821809
251,thal,35.4791,72.2439,11.32,65,21,2.55,PK,1718821809
252,popondetta,-8.7537,148.2534,21.58,88,96,1.04,PG,1718821809
253,pahrump,36.2083,-115.9839,33.05,6,0,1.79,US,1718821810
254,severo-yeniseyskiy,60.3725,93.0408,0.11,95,0,2.15,RU,1718821810
255,stiens,53.2623,5.7577,16.66,69,75,4.12,NL,1718821810
256,lalsot,26.5667,76.3333,34.49,39,13,6.93,IN,1718821810
257,pariaman,-0.619,100.12,27.03,86,100,1.5,ID,1718821811
258,bayanhongor,46.7167,100.1167,8.47,66,36,1.36,MN,1718821811
259,key west,24.5557,-81.7826,33.0,70,0,7.72,US,1718821649
260,prachuap khiri khan,12.2167,99.75,25.68,81,39,3.44,TH,1718821811
261,vavuniya,8.7514,80.4971,26.33,80,73,4.01,LK,1718821812
262,el bauga,18.262,33.9081,35.18,31,63,6.43,SD,1718821812
263,horta,38.5333,-28.6333,20.8,70,40,2.68,PT,1718821812
264,duong dong,10.2167,103.9667,29.0,79,40,6.17,VN,1718821812
265,caazapa,-26.15,-56.4,26.26,67,44,2.4,PY,1718821812
266,ruteng,-8.6136,120.4721,14.25,89,95,0.85,ID,1718821813
267,usinsk,65.9939,57.5281,7.09,59,100,6.65,RU,1718821813
268,falmouth,50.1544,-5.0711,17.32,63,75,2.57,GB,1718821813
269,east london,-33.0153,27.9116,14.52,77,0,5.66,ZA,1718821813
270,kimbe,-5.5502,150.1429,24.25,94,98,2.95,PG,1718821814
271,kapa'a,22.0752,-159.319,27.99,85,100,9.77,US,1718821814
272,flin flon,54.7682,-101.865,14.91,44,100,6.69,CA,1718821781
273,san patricio,28.017,-97.5169,26.58,95,100,7.47,US,1718821814
274,walvis bay,-22.9575,14.5053,15.05,82,0,0.0,NA,1718821815
275,gadzhiyevo,69.2551,33.3362,8.28,96,100,8.53,RU,1718821815
276,nanchang,28.6833,115.8833,24.99,96,100,2.67,CN,1718821687
277,altay,47.8667,88.1167,9.76,60,6,1.71,CN,1718821816
278,steinbach,50.1667,8.5667,19.88,69,75,4.63,DE,1718821816
279,sirte,31.2089,16.5887,25.28,70,0,3.84,LY,1718821816
280,alofi,-19.0595,-169.9187,19.94,94,8,0.51,NU,1718821816
281,udachny,66.4167,112.4,11.0,66,90,3.09,RU,1718821817
282,nova sintra,14.8667,-24.7167,24.73,81,91,5.24,CV,1718821817
283,chinde,26.8418,88.0763,18.84,98,100,0.39,NP,1718821817
284,uige,-7.6087,15.0613,20.62,36,0,1.38,AO,1718821817
285,ciudad bolivar,8.1222,-63.5497,32.96,45,77,3.23,VE,1718821639
286,jiayuguan,39.8167,98.3,21.0,33,100,6.2,CN,1718821818
287,formosa do rio preto,-11.0483,-45.1931,32.11,28,10,3.89,BR,1718821818
288,swakopmund,-22.6833,14.5333,14.99,82,0,2.24,NA,1718821811
289,arias,-33.6441,-62.4027,17.89,38,2,5.12,AR,1718821819
290,peniche,39.3558,-9.3811,20.16,81,0,7.49,PT,1718821819
291,vilyuysk,63.7553,121.6247,9.28,81,68,4.0,RU,1718821820
292,miles city,46.4083,-105.8406,18.54,42,0,5.66,US,1718821820
293,coahuayana de hidalgo,18.7,-103.6583,30.1,67,90,3.98,MX,1718821820
294,emerald,-23.5333,148.1667,12.23,39,0,2.21,AU,1718821820
295,malmberget,67.1753,20.6549,11.31,94,100,4.63,SE,1718821821
296,lyantor,61.6195,72.1555,5.37,56,3,2.86,RU,1718821821
297,geraldton,-28.7667,114.6,7.23,87,0,3.09,AU,1718821571
298,marka,1.7159,44.7717,25.79,87,91,6.59,SO,1718821822
299,genhe,50.7833,121.5167,6.97,74,3,1.69,CN,1718821822
300,teguise,29.0605,-13.564,20.12,60,40,8.75,ES,1718821823
301,sandnessjoen,66.0217,12.6316,10.29,81,75,4.63,NO,1718821823
302,rabo de peixe,37.8,-25.5833,20.73,99,75,3.6,PT,1718821823
303,tieli,46.95,128.05,17.0,97,100,0.59,CN,1718821823
304,recani,31.2846,-4.2688,36.96,6,0,10.88,MA,1718821824
305,turabah,21.2141,41.6331,32.15,9,14,4.64,SA,1718821824
306,edgewater,28.9889,-80.9023,31.18,70,75,7.72,US,1718821577
307,samraong,12.4526,105.5873,25.67,83,100,1.15,KH,1718821824
308,guanica,17.9716,-66.908,32.51,77,100,6.03,PR,1718821825
309,beolgyo,34.8449,127.3429,19.99,72,100,1.9,KR,1718821825
310,alghero,40.5589,8.3181,28.05,61,20,5.14,IT,1718821825
311,kota belud,6.351,116.4305,25.07,84,100,1.5,MY,1718821613
312,boguchany,58.3814,97.4531,4.0,88,19,3.53,RU,1718821826
313,mitu,1.1983,-70.1733,27.46,90,88,0.41,CO,1718821826
314,malango,-2.9627,119.9001,17.48,97,100,0.85,ID,1718821826
315,coburg,50.2667,10.9667,17.65,73,50,0.45,DE,1718821826
316,le pouliguen,47.2697,-2.4278,18.33,88,1,1.95,FR,1718821827
317,okhotsk,59.3833,143.3,8.4,92,100,2.43,RU,1718821827
318,sheki,41.1919,47.1706,24.43,45,0,3.34,AZ,1718821827
319,upata,8.0086,-62.3989,28.14,64,90,3.13,VE,1718821767
320,sept-iles,50.2001,-66.3821,24.29,81,40,4.12,CA,1718821828
321,tralee,52.2704,-9.7026,14.14,67,0,4.12,IE,1718821828
322,rawson,-43.3002,-65.1023,4.39,93,93,9.06,AR,1718821828
323,nantucket,41.2835,-70.0995,26.16,81,0,6.69,US,1718821828
324,praia da vitoria,38.7333,-27.0667,20.42,77,75,1.84,PT,1718821828
325,ga-kgapane,-23.6333,30.2167,16.04,29,0,1.97,ZA,1718821829
326,ziro,27.6333,93.8333,17.12,100,100,0.75,IN,1718821829
327,lasem,-6.6922,111.4527,23.41,84,50,3.64,ID,1718821829
328,ust'-ilimsk,58.0006,102.6619,12.18,80,100,3.86,RU,1718821829
329,darwin,-12.4611,130.8418,20.99,88,0,1.54,AU,1718821802
330,alta sierra,35.7291,-118.5495,21.17,29,0,3.62,US,1718821830
331,nabire,-3.3667,135.4833,23.6,94,100,1.69,ID,1718821830
332,waseca,44.0777,-93.5074,20.61,73,75,4.12,US,1718821830
333,baiti,13.745,-14.7482,34.37,42,76,1.95,SN,1718821831
334,luderitz,-26.6481,15.1594,15.13,70,0,5.86,NA,1718821831
335,barcelos,41.5388,-8.6151,20.51,86,96,3.35,PT,1718821831
336,la ronge,55.1001,-105.2842,16.14,33,40,6.17,CA,1718821831
337,zhezqazghan,47.7833,67.7667,20.32,26,0,5.0,KZ,1718821831
338,villa gesell,-37.2639,-56.973,16.14,54,82,1.23,AR,1718821781
339,puerto tirol,-27.3722,-59.0821,29.51,69,40,2.57,AR,1718821832
340,jayapura,-2.5333,140.7,23.66,94,85,2.08,ID,1718821832
341,berezovyy,51.6667,135.7,5.33,98,100,1.33,RU,1718821832
342,mount pearl,47.5166,-52.7813,23.03,67,75,3.6,CA,1718821832
343,acapulco de juarez,16.8634,-99.8901,29.9,66,40,3.6,MX,1718821638
344,tolanaro,-25.0319,46.9987,22.04,78,20,10.29,MG,1718821833
345,yushu,44.8,126.5333,18.06,57,90,4.36,CN,1718821833
346,villamaria,5.0449,-75.5146,20.19,83,75,3.09,CO,1718821692
347,belmar,40.1785,-74.0218,34.12,62,0,4.12,US,1718821834
348,celestun,20.8667,-90.4,28.67,81,100,5.11,MX,1718821834
349,teploye,53.6202,37.5903,18.87,88,100,4.5,RU,1718821834
350,cernavoda,44.3667,28.0167,23.58,57,0,4.33,RO,1718821834
351,kualakapuas,-3.0091,114.3876,23.16,97,100,1.13,ID,1718821834
352,big bend,-26.8167,31.9333,16.95,83,0,1.3,SZ,1718821835
353,susuman,62.7833,148.1667,15.14,61,81,0.41,RU,1718821835
354,zorritos,-3.6805,-80.6782,29.16,68,27,4.28,PE,1718821835
355,labytnangi,66.6572,66.4183,3.28,59,3,4.62,RU,1718821835
356,solcava,46.4194,14.6936,28.52,83,100,1.7,SI,1718821836
357,saint-philippe,-21.3585,55.7679,20.77,73,46,4.91,RE,1718821836
358,ormara,25.2088,64.6357,28.97,84,96,7.13,PK,1718821837
359,gamay,12.3854,125.2979,24.64,91,53,1.45,PH,1718821837
360,amlapura,-8.45,115.6167,22.91,81,63,3.43,ID,1718821837
361,mariental,-24.6333,17.9667,14.53,24,0,5.26,NA,1718821837
362,tual,-5.6667,132.75,26.1,77,87,9.29,ID,1718821837
363,siwa oasis,29.2041,25.5195,33.75,20,0,2.65,EG,1718821838
364,turpan,42.9333,89.1667,31.79,20,59,7.68,CN,1718821838
365,carver,44.8,-93.7836,22.07,64,100,2.92,US,1718821838
366,beyneu,45.3167,55.2,31.73,33,100,5.94,KZ,1718821839
367,nova vicosa,-17.8919,-39.3719,26.51,68,6,3.19,BR,1718821839
368,sur,22.5667,59.5289,35.63,35,10,3.44,OM,1718821839
369,greymouth,-42.4667,171.2,4.45,84,93,4.06,NZ,1718821839
370,mosjoen,65.836,13.1908,10.29,71,75,1.03,NO,1718821840
371,hauterive,46.0901,3.4459,22.42,88,96,0.55,FR,1718821840
372,atafu village,-8.5421,-172.5159,28.88,77,37,6.8,TK,1718821840
373,boac,13.4463,121.84,27.36,81,100,1.93,PH,1718821840
374,dubrovnik,42.6481,18.0922,26.8,69,0,5.14,HR,1718821841
375,pati,-6.7559,111.038,21.35,88,1,1.08,ID,1718821841
376,conde,-7.2597,-34.9075,27.7,69,75,7.2,BR,1718821791
377,zinjibar,13.1287,45.3807,31.91,58,75,1.14,YE,1718821841
378,lodwar,3.1191,35.5973,32.59,31,4,2.15,KE,1718821841
379,lobujya,27.95,86.8167,1.71,89,100,2.01,NP,1718821842
380,zelenogorskiy,55.0333,87.0,9.03,91,99,1.55,RU,1718821842
381,nagqu,31.5,92.0,4.94,91,30,2.2,CN,1718821842
382,malanje,-9.5402,16.341,18.53,27,0,1.34,AO,1718821842
383,volksrust,-27.3654,29.8818,7.07,32,0,0.57,ZA,1718821843
384,tulun,54.5611,100.5792,8.5,93,100,4.57,RU,1718821843
385,naberera,-4.2,36.9333,16.52,93,100,4.03,TZ,1718821843
386,veinticinco de mayo,-35.4323,-60.1727,17.21,56,13,1.79,AR,1718821737
387,broken hill,-31.95,141.4333,8.06,88,0,4.55,AU,1718821844
388,vodnyy,63.5046,53.4095,14.99,70,100,3.53,RU,1718821844
389,olyokminsk,60.3736,120.4264,8.87,87,8,1.66,RU,1718821844
390,tacoma,47.2529,-122.4443,22.44,63,0,3.6,US,1718821688
391,weno,7.4515,151.8468,27.97,83,100,3.6,FM,1718821845
392,biryusinsk,55.9634,97.8235,7.0,86,100,2.79,RU,1718821845
393,kupiskis,55.8333,24.9667,13.65,95,100,3.11,LT,1718821845
394,ashland,40.8167,-82.2665,31.68,80,100,3.34,US,1718821643
395,kapit,2.0167,112.9333,23.35,99,86,0.41,MY,1718821845
396,zhanaozen,43.3,52.8,29.25,35,77,3.25,KZ,1718821846
397,marica,-22.9194,-42.8186,29.97,64,0,2.57,BR,1718821846
398,lazaro cardenas,17.9583,-102.2,28.85,75,77,6.74,MX,1718821846
399,singaraja,-8.112,115.0882,24.1,78,40,2.12,ID,1718821846
400,afif,23.9065,42.9172,32.66,7,0,3.82,SA,1718821847
401,howrah,22.5892,88.3103,29.0,84,40,4.63,IN,1718821847
402,mawu,29.5923,107.3139,20.53,99,100,0.68,CN,1718821847
403,maqat,47.65,53.3167,29.11,46,100,4.81,KZ,1718821847
404,gamba,-2.65,10.0,22.64,88,97,3.51,GA,1718821847
405,pandan,14.0453,124.1694,26.47,88,100,1.8,PH,1718821848
406,callao,-12.0667,-77.15,19.29,88,100,2.06,PE,1718821729
407,celina,40.5489,-84.5702,33.26,57,100,1.86,US,1718821588
408,ghat,24.9647,10.1728,34.53,10,0,6.07,LY,1718821849
409,prineville,44.2999,-120.8345,23.06,29,0,2.57,US,1718821616
410,waingapu,-9.6567,120.2641,21.89,85,30,3.44,ID,1718821849
411,yaren,-0.5472,166.916,28.54,75,96,4.43,NR,1718821837
412,chardara,41.2547,67.9692,28.79,33,12,3.9,KZ,1718821850
413,leshan,29.5623,103.7639,22.91,93,100,0.95,CN,1718821850
414,coquimbo,-29.9533,-71.3436,17.85,72,0,4.12,CL,1718821397
415,sabang,5.8933,95.3214,29.16,74,100,8.25,ID,1718821851
416,hailar,49.2,119.7,16.42,90,100,5.58,CN,1718821851
417,aksu,41.1231,80.2644,24.92,32,6,1.32,CN,1718821851
418,wanning,18.8003,110.3967,27.56,89,100,3.46,CN,1718821851
419,sagua de tanamo,20.5819,-75.2414,30.26,74,100,1.85,CU,1718821852
420,tubmanburg,6.8708,-10.8172,24.46,94,100,1.92,LR,1718821852
421,aleksandrovsk-sakhalinskiy,50.8975,142.1561,9.39,89,100,1.48,RU,1718821852
422,strezhevoy,60.7333,77.5889,3.83,60,0,2.19,RU,1718821853
423,ad dilam,23.9915,47.1627,37.23,8,0,2.12,SA,1718821853
424,razampeta,14.1833,79.1667,31.88,47,100,4.02,IN,1718821853
425,shetpe,44.1667,52.1167,27.02,46,59,0.9,KZ,1718821854
426,bardai,11.65,7.2333,30.32,48,46,4.82,NG,1718821854
427,borskoye,53.0333,51.7167,19.34,87,98,5.48,RU,1718821854
428,tanjung pandan,-2.75,107.65,26.51,86,100,3.3,ID,1718821854
429,isfara,40.1265,70.6253,27.15,29,0,2.21,TJ,1718821855
430,puerto san jose,13.9256,-90.8244,25.34,90,100,2.79,GT,1718821855
431,nyagan,62.1406,65.3936,8.1,55,15,2.47,RU,1718821855
432,hotan,37.0997,79.9269,24.62,32,100,3.27,CN,1718821628
433,colares,38.7992,-9.4469,20.82,74,20,7.15,PT,1718821856
434,buala,-8.145,159.5921,27.58,82,100,5.59,SB,1718821856
435,yeppoon,-23.1333,150.7333,9.58,52,0,1.22,AU,1718821856
436,barra do corda,-5.5,-45.25,34.93,29,23,3.3,BR,1718821856
437,santana,-0.0583,-51.1817,32.1,70,40,4.63,BR,1718821857
438,twon-brass,4.3151,6.2418,27.28,80,27,3.52,NG,1718821857
439,mananjary,-21.2167,48.3333,20.22,77,33,1.64,MG,1718821857
440,kone,-21.0595,164.8658,14.68,84,0,1.28,NC,1718821857
441,goundam,16.4145,-3.6708,41.16,14,8,2.51,ML,1718821858
442,ulladulla,-35.35,150.4667,5.05,72,0,2.29,AU,1718821858
443,kankan,10.3854,-9.3057,28.96,61,60,2.49,GN,1718821858
444,hvardiiske,45.1209,34.0185,22.6,56,0,2.72,UA,1718821858
445,carutapera,-1.195,-46.02,28.6,74,2,4.75,BR,1718821858
446,santona,43.4439,-3.4576,20.17,84,42,4.27,ES,1718821859
447,kerema,-7.9631,145.7785,24.17,87,100,2.4,PG,1718821859
448,abbeville,50.1,1.8333,18.6,83,44,6.38,FR,1718821859
449,sarandi del yi,-33.35,-55.6333,20.21,68,17,3.5,UY,1718821859
450,ayr,55.4627,-4.6339,15.94,63,20,6.17,GB,1718821860
451,chazuta,-6.5742,-76.1367,35.47,52,24,1.77,PE,1718821860
452,sola,-13.8833,167.55,27.16,78,100,8.52,VU,1718821860
453,okha,53.5739,142.9478,5.8,95,100,2.59,RU,1718821860
454,hounde,11.5,-3.5167,35.02,39,60,2.47,BF,1718821634
455,bugul'ma,54.55,52.8,16.82,96,100,6.23,RU,1718821861
456,santa elena de uairen,4.6167,-61.1333,24.79,72,39,4.7,VE,1718821861
457,barranca,-10.75,-77.7667,19.49,73,100,4.83,PE,1718821862
458,bandarbeyla,9.4942,50.8122,25.83,86,51,12.74,SO,1718821862
459,montepuez,-13.1256,38.9997,21.62,79,100,2.17,MZ,1718821862
460,valga,57.7778,26.0473,13.89,90,100,1.34,EE,1718821863
461,adrar,20.5022,-10.0711,38.37,12,0,4.77,MR,1718821863
462,dizangue,3.7667,9.9833,27.64,97,92,1.66,CM,1718821863
463,coxen hole,16.3244,-86.5366,33.6,55,0,6.69,HN,1718821863
464,saint-pierre,-21.3393,55.4781,20.82,64,100,1.54,RE,1718821864
465,petawawa,45.9001,-77.3328,31.44,58,75,4.12,CA,1718821864
466,karratha,-20.7377,116.8463,20.49,70,75,7.42,AU,1718821864
467,torrevieja,37.9787,-0.6822,26.68,49,38,4.47,ES,1718821864
468,kashgar,39.4547,75.9797,26.56,27,40,4.0,CN,1718821865
469,cifteler,39.3831,31.0392,23.32,54,100,5.81,TR,1718821865
470,bordighera,43.7806,7.6645,27.34,60,99,2.24,IT,1718821865
471,crane,31.3974,-102.3501,31.8,40,4,9.39,US,1718821865
472,cambria,35.5641,-121.0808,28.09,55,2,4.57,US,1718821866
473,sal rei,16.1833,-22.9167,24.23,86,100,5.53,CV,1718821866
474,fort st. john,56.2499,-120.8529,18.94,42,75,3.09,CA,1718821866
475,sisli,41.0605,28.9872,24.43,65,0,7.2,TR,1718821866
476,nkhata bay,-11.6066,34.2907,21.41,73,0,1.39,MW,1718821867
477,kiranur,10.5699,78.7868,26.84,87,100,4.01,IN,1718821867
478,longboat key,27.4125,-82.659,32.29,66,75,5.66,US,1718821831
479,sao jose da coroa grande,-8.8978,-35.1478,26.26,79,91,5.12,BR,1718821867
480,brisas barra de suchiate,14.55,-92.2167,28.1,94,100,3.98,MX,1718821868
481,malvan,16.0667,73.4667,28.2,78,100,3.49,IN,1718821868
482,kiruna,67.8557,20.2251,10.51,87,100,3.6,SE,1718821868
483,manorville,40.8737,-72.8079,31.27,76,0,6.17,US,1718821868
484,saudarkrokur,65.7461,-19.6394,5.43,95,100,2.77,IS,1718821869
485,inarajan village,13.2736,144.7484,28.08,89,26,4.69,GU,1718821869
486,yerofey pavlovich,53.9667,121.9667,6.8,94,2,1.34,RU,1718821869
487,stepnoye,51.4,46.8667,19.47,74,10,3.7,RU,1718821869
488,nogliki,51.8333,143.1667,6.65,92,100,2.22,RU,1718821598
489,isangel,-19.55,169.2667,22.57,85,0,4.46,VU,1718821870
490,harper,4.375,-7.7169,25.48,86,100,4.26,LR,1718821870
491,richards bay,-28.783,32.0377,19.46,84,28,3.49,ZA,1718821870
492,qala i naw,34.9874,63.1289,26.67,24,2,2.71,AF,1718821870
493,namibe,-15.1961,12.1522,17.78,90,16,1.81,AO,1718821871
494,taroa,8.7058,171.2275,28.27,77,44,7.53,MH,1718821871
495,kourou,5.1552,-52.6478,31.03,69,56,4.01,GF,1718821871
496,veraval,20.9,70.3667,30.1,79,56,7.77,IN,1718821871
497,al wajh,26.2455,36.4525,31.97,55,0,4.12,SA,1718821872
498,lagunas,-5.2269,-75.6753,33.96,45,70,0.18,PE,1718821872
499,yamba,-5.9,22.3,24.06,39,2,1.38,CD,1718821872
500,yaring,6.8662,101.3689,25.17,88,100,2.28,TH,1718821872
501,mirnyy,62.5353,113.9611,9.49,78,100,4.3,RU,1718821873
502,pokhara,28.2333,83.9833,21.54,76,50,1.95,NP,1718821873
503,the bottom,17.6259,-63.2492,31.31,75,100,7.92,BQ,1718821873
504,falun,60.6036,15.626,19.97,38,5,4.03,SE,1718821873
505,manjeshvar,12.7,74.8833,24.66,83,100,0.42,IN,1718821873
506,alpena,45.0617,-83.4327,34.18,45,0,7.2,US,1718821874
507,alakurtti,66.9672,30.3491,13.21,91,2,1.68,RU,1718821874
508,saulkrasti,57.2622,24.4147,14.97,87,100,4.62,LV,1718821874
509,cafayate,-26.073,-65.9761,22.46,6,0,1.89,AR,1718821829
510,hithadhoo,-0.6,73.0833,28.54,70,75,2.29,MV,1718821875
511,torrington,41.8007,-73.1212,34.44,64,100,0.89,US,1718821641
512,frolovo,49.7713,43.6622,18.55,62,0,3.29,RU,1718821875
513,fortuna,40.5982,-124.1573,14.19,93,75,0.0,US,1718821875
514,krasnoural'sk,58.3638,60.0407,17.54,99,100,3.24,RU,1718821876
515,kailua-kona,19.6406,-155.9956,28.11,83,75,0.89,US,1718821876
516,ugoofaaru,5.6667,73.0,28.83,79,100,6.93,MV,1718821876
517,zango,13.0515,8.4877,35.96,24,6,3.68,NG,1718821876
518,kidal,18.4411,1.4078,39.61,6,4,4.54,ML,1718821876
519,lata,40.1629,-8.3327,19.49,68,61,2.96,PT,1718821877
520,borger,52.9233,6.7931,17.15,73,10,2.87,NL,1718821877
521,chita,52.0333,113.55,12.94,58,40,2.0,RU,1718821878
522,brookings,44.3114,-96.7984,19.49,69,75,1.54,US,1718821878
523,salinopolis,-0.6136,-47.3561,28.21,78,0,6.54,BR,1718821878
524,nouadhibou,20.931,-17.0347,23.99,64,80,8.75,MR,1718821878
525,nandgaon,20.3167,74.65,26.09,75,100,7.41,IN,1718821879
526,port douglas,-16.4833,145.4667,18.56,79,3,1.97,AU,1718821879
527,ivdel',60.6911,60.4206,13.19,84,100,1.96,RU,1718821879
528,yerba buena,-26.8167,-65.3167,20.65,62,6,2.81,AR,1718821879
529,champerico,14.3,-91.9167,23.96,96,100,3.96,GT,1718821880
530,mili,6.0815,171.735,28.63,77,20,7.72,MH,1718821880
531,liboro,13.8245,122.7295,26.45,85,77,1.59,PH,1718821880
532,chu,43.5983,73.7614,24.53,37,7,6.05,KZ,1718821880
533,sidi slimane,34.2648,-5.926,21.64,56,0,6.14,MA,1718821881
534,amuntai,-2.4177,115.2494,22.15,99,100,0.48,ID,1718821881
535,gurupi,-11.7292,-49.0686,33.88,28,0,2.62,BR,1718821881
536,pontianak,-0.0333,109.3333,23.99,100,100,0.0,ID,1718821881
537,montevideo,-34.8335,-56.1674,19.01,68,40,1.34,UY,1718821715
538,akrehamn,59.2667,5.1833,13.89,66,0,5.14,NO,1718821882
539,sambava,-14.2667,50.1667,22.79,80,53,6.39,MG,1718821883
540,kruisfontein,-34.0033,24.7314,9.94,91,1,2.74,ZA,1718821883
541,iznalloz,37.3926,-3.5276,20.41,59,16,5.19,ES,1718821883
542,kudahuvadhoo,2.6708,72.8944,28.74,75,100,5.52,MV,1718821883
543,rumbek,6.802,29.6912,23.62,85,37,2.53,SS,1718821884
544,saint-louis,16.3333,-15.0,36.8,42,100,10.11,SN,1718821884
545,boende,-0.2167,20.8667,26.45,57,25,0.33,CD,1718821884
546,vilyuchinsk,52.9306,158.4028,6.15,89,27,0.51,RU,1718821884
547,mana,5.6592,-53.7767,28.28,76,35,5.09,GF,1718821885
548,wad az zaki,14.4619,32.2065,35.75,32,0,2.77,SD,1718821885
549,suva,-18.1416,178.4415,23.71,100,40,1.54,FJ,1718821885
550,verdal,63.7933,11.4817,11.02,85,100,3.02,NO,1718821886
551,belmonte,-15.8631,-38.8828,26.15,69,3,2.9,BR,1718821886
552,borba,-4.3878,-59.5939,29.82,63,100,0.95,BR,1718821886
553,ake-eze,5.9168,7.6762,25.33,93,93,1.93,NG,1718821886
554,mweka,-4.85,21.5667,23.72,40,2,0.74,CD,1718821886
555,majene,-3.5403,118.9707,23.43,86,96,5.98,ID,1718821887
556,sergach,55.5308,45.4661,15.81,89,0,3.19,RU,1718821887
557,oranjemund,-28.55,16.4333,13.78,86,0,5.62,NA,1718821887
558,bangor,54.6534,-5.669,19.73,61,82,2.06,GB,1718821776
559,saint-joseph,-21.3667,55.6167,20.21,72,19,5.11,RE,1718821888
560,ambovombe,-25.1667,46.0833,20.54,81,0,2.16,MG,1718821888
561,roma,43.2128,-75.4557,32.63,67,20,3.09,US,1718821558
562,dalbandin,28.8947,64.4101,32.31,10,0,3.91,PK,1718821889
